Station_name,Available_bikes,Longitude,Latitude
Cégep Marie-Victorin,10,-73.60601127147675,45.617499783128075
Gare d'autocars de Montréal (Berri / Ontario),6,-73.56425732374191,45.516926210319546
Molson / William-Tremblay,6,-73.56501236557959,45.54154850456526
Ateliers municipaux de St-Laurent (Cavendish / Poirier),11,-73.71118605136871,45.506175841460966
Place Rodolphe-Rousseau (Gohier / Édouard-Laurin),7,-73.68249848484993,45.5129938566323
Centre des loisirs (Tassé / Grenet),5,-73.69144901633263,45.51473429416659
Parc Marlborough (Beauzèle / Robichaud),7,-73.72167885303497,45.52234149817879
Champdoré / de Lorimier,14,-73.64101678133011,45.566869345371856
Parc Villeray (Christophe-Colomb / Jarry),10,-73.62434014678001,45.54813638885782
Beurling / Godin,8,-73.58381867408752,45.44791581215845
Kirkfield / de Chambois,24,-73.63389015197754,45.51293324107222
Parc des Rapides (LaSalle / 6e avenue),4,-73.59309915918857,45.42947143740888
Métro Longueuil - Université de Sherbrooke,15,-73.52012693881989,45.52331869398737
St-Charles / Montarville,10,-73.51526074111462,45.53368199320325
Collège Édouard-Montpetit (de Gentilly / de Normandie),6,-73.49506705999374,45.53722603812578
Place Longueuil,7,-73.51716578006744,45.52841043752244
Place du Commerce,14,-73.54259,45.46714
Marché Maisonneuve,9,-73.53978216648102,45.55321884238814
Parc Kent (de Kent / Hudson),12,-73.62945914268494,45.5057209331225
Rachel / de Brébeuf,7,-73.57264,45.52689
Aréna Rodrigue-Gilbert (du Tricentenaire / de Montigny),13,-73.50041270256041,45.65140583915357
Parc St-Laurent (Salk / Thomas-Chapais),11,-73.6287838,45.6062348
Notre-Dame / St-Gabriel,5,-73.55511903762817,45.50714391928411
Casino de Montréal,3,-73.52457672,45.5063732
La Ronde,4,-73.53533238172531,45.52156536710626
U. Concordia - Campus Loyola (Sherbrooke / West Broadway),7,-73.6394852399826,45.45750908083069
Parc Labelle (LaSalle / Henri-Duhamel),14,-73.56998920440674,45.47256100297732
des Ormeaux / de Grosbois,4,-73.53436946868896,45.605901731906485
Parc Reine-Élizabeth (Penniston / Crawford),11,-73.59173655509949,45.43914465255811
Parc de la Confédération (Fielding / West Hill),18,-73.64002168178558,45.471881993586074
Bibliothèque d'Ahuntsic (Lajeunesse / Fleury),8,-73.66225451231003,45.5534000891078
Centre ÉPIC (St-Zotique / 40e avenue),15,-73.57462137937546,45.57414703721992
Bélanger / des Galeries d'Anjou,4,-73.56279015541077,45.59722114932571
Cité des Arts du Cirque (Paul Boutet / des Regrattiers),4,-73.61544728279114,45.55984236120471
Rosemont / Viau,6,-73.56666326522826,45.56833021674857
Parc Stoney-Point (St-Joseph / 47e avenue),9,-73.70836973190308,45.43656827071224
Parc LaSalle (10e avenue / Victoria),4,-73.67273926734924,45.43805550384184
Elgar / de l'Île-des-Sœurs,12,-73.546804189682,45.45682318753668
St-Jacques / des Seigneurs,9,-73.57190027832984,45.489185716082275
O'Brien / Poirier,5,-73.69143962860107,45.52252484113786
Thimens / Alexis-Nihon,17,-73.69856357574463,45.50897852206792
Parc Van Horne (de la Peltrie / de Westbury),3,-73.63852232694626,45.490494421832885
Hôpital Sacré-Coeur (Forbes),4,-73.71360540390015,45.531943590076395
Atwater / Greene,20,-73.57782661914825,45.480495143306044
Atwater / Sherbrooke,15,-73.58763009309769,45.4912258547597
Mairie d'arrondissement Montréal-Nord (Hébert / de Charleroi),5,-73.63767206668854,45.59398503487043
Omer-Lavallée / du Midway,8,-73.56217458844185,45.5457759528664
Parc Noel-Nord (Toupin / Keller),12,-73.72661411762238,45.51758306374252
Parc du Bois-Franc (de l'Équateur / des Andes),6,-73.71306091547012,45.51317758246596
Parc Grovehill (St-Antoine / Ivan-Franko),6,-73.69487822055817,45.43982382100397
Bibliothèque Jean-Corbeil (Goncourt / Place Montrichard),5,-73.5579303,45.6027276
Aréna Chaumont (Chaumont / des Ormeaux),12,-73.54673445224762,45.610926628992026
Parc Chamberland (Dorais / de l'Église),11,-73.689113,45.502989
Parc Summerlea (53e avenue / St-Joseph),4,-73.71546685695648,45.43836713933041
Parc Kirkland (des Érables / Boyer),11,-73.65079946815968,45.44606092178209
William / Robert-Bourassa,16,-73.55933010578154,45.49716534003792
Quai de la navette fluviale,5,-73.53842496871948,45.51366626207095
St-Antoine / de la Montagne,7,-73.56858909130096,45.49537171535007
Lapierre / Serge,4,-73.62021625041962,45.43854405099729
Parc St-Louis (St-Joseph / 34e avenue),8,-73.69349151849747,45.432839840726125
Victoria / 18e avenue Lachine,4,-73.6801904439926,45.43579350588776
Métro Jolicoeur (de Sève / Drake),12,-73.58193710446358,45.45608545783109
Duchesneau / de Marseille,4,-73.52273898082785,45.60962627826218
Papineau / Émile-Journault,22,-73.63356828689575,45.55988367688166
LaSalle / Godin,6,-73.57219934463501,45.44693448484644
Parc Delorme (Malouin / Laferté),12,-73.5902694,45.5904902
Parc Luigi-Pirandello (de Bretagne / Jean-Rivard),12,-73.60258877277374,45.57940569041942
Parc Beaulac (rue Élizabeth),10,-73.67795147001743,45.5200557245067
Parc St-Laurent (Dutrisac),7,-73.68911147117615,45.52591381815231
CHSLD St-Michel (8e avenue / Jarry),3,-73.610512,45.5616903
Georges-Vanier / Notre-Dame,6,-73.5719633102417,45.485047979822774
Travaux publics LaSalle (Cordner / Léger),3,-73.62448364496231,45.44527192876118
Parc de Dieppe,5,-73.5439610481262,45.501863463435576
Terminus Newman (Airlie / Lafleur),11,-73.64959917962551,45.425059666150744
Newman / Senkus,13,-73.61375212669373,45.44404309237571
St-Urbain / René-Lévesque,11,-73.56313616037369,45.507837541505836
de Maisonneuve / Aylmer (est),0,-73.5704317688942,45.50538591756765
Smith / Peel,18,-73.55641052126883,45.49276061084002
de la Commune / King,21,-73.55284452438353,45.49750375338383
de la Commune / Place Jacques-Cartier,41,-73.55183601379395,45.50761009451047
de la Commune / St-Sulpice,32,-73.553469479084,45.50424245563397
Chabanel / du Parc,3,-73.6548838019371,45.53830765459552
Ottawa / William,4,-73.56406286358833,45.48972725318433
de la Commune / Berri,10,-73.54983,45.51086
Berlioz / de l'Île des Soeurs,10,-73.54395568370819,45.45998577640931
Parc Benny (Benny / de Monkland),10,-73.63153114914894,45.46693565237702
Cégep André-Laurendeau (Lapierre),6,-73.60577523708344,45.43605512104547
Métro Henri-Bourassa (Henri-Bourassa / Millen),7,-73.66716161370277,45.55675103297278
Dixie / 54e avenue,8,-73.71789157390594,45.44338026469991
LaSalle / 90e avenue,12,-73.64518761634827,45.41774583815495
Métro de la Concorde (Léo-Lacombe),10,-73.7091851234436,45.5604898518365
Calixa-Lavallée / Rachel,16,-73.5719096660614,45.527831544563064
Parc du Mail (Bois de Coulonges / du Mail),11,-73.54596734046936,45.59833498124187
Marché Jean-Talon (Casgrain / Shamrock),18,-73.61548215150833,45.53519006163501
HEC (Decelles / Jean-Brillant),15,-73.61925333738327,45.497722829899764
Fabrik8 (Waverly / Jean-Talon),16,-73.62082242965698,45.53330725719417
Parc Courbertin (Valéry / Perrier),7,-73.60809333622456,45.5839877335556
Parc Hébert (Colbert / Provencher),14,-73.59370462596415,45.57237805962001
Parc Garibaldi (Liénart / Bélanger),9,-73.570396900177,45.586476480180046
Parc Aimé-Léonard (Gouin / Ste-Gertrude),3,-73.63850623369217,45.60835820969716
Parc Charleroi (Alfred / Louis-Francoeur),3,-73.62360253930092,45.59953472156509
Parc Maurice-Bélanger (Hébert / Denommée),2,-73.63171823322773,45.5877138098252
Gare St-Michel / Montréal-Nord (Pie-IX / 56e),7,-73.62978704273701,45.583197821913785
CÉGEP du Vieux-Montréal (Ontario / de l'Hôtel-de-Ville),4,-73.56598667800426,45.51401222645779
Parc Jeanne-Mance (du Mont-Royal / du Parc),2,-73.58910799026489,45.51689731423111
Léa-Roback / Sir-Georges-Etienne-Cartier,8,-73.5827162861824,45.472051276471305
Parc Eusèbe-Ménard (Gouin / St-Vital),9,-73.64874824881554,45.59253950875074
St-Hubert / de Maisonneuve (sud),8,-73.56008380651474,45.51586835126322
CHSLD Joseph-François-Perrault (St-Michel / Everett),0,-73.60145956277847,45.55969734528566
Mairie d'arrondissement St-Laurent (Beaudet / Marcel-Laurin),10,-73.68184804916382,45.50682415585665
Gare Montpellier (Muir / de la Côte-Vertu),9,-73.67169924080372,45.52374047147138
Gare du Ruisseau (Dutrisac / Henri-Bourassa),16,-73.69254536926746,45.52814371649508
Bibliothèque du Vieux-St-Laurent (de l'Église / Filiatrault),8,-73.67612421512604,45.512843286755896
CHSLD Robert Cliche (de Bellechasse / 16e avenue),10,-73.579191,45.557568
Parc Ottawa (de Belleville / Fleury),12,-73.6412434,45.58116
Parc Nicolas-Tillemont (des Érables / Villeray),15,-73.61255215771962,45.55463653358596
Métro Viau (Viau / Pierre-de-Coubertin),19,-73.5481941328544,45.563084167155345
Parc Armand-Bombardier (Perras / Armand-Bombardier),7,-73.5961118,45.6391233
Collège de Rosemont (Beaubien / 15e avenue),2,-73.58380123972893,45.55774990838239
McTavish / Sherbrooke,32,-73.57589408755302,45.50277615861811
de Bleury / de Maisonneuve,5,-73.56844156980515,45.507096455662456
de Maisonneuve / Aylmer (ouest),1,-73.5706517100334,45.505173440423306
Préfontaine / Marcel-Pépin,5,-73.55942063033581,45.54365380040509
Métro Atwater (Atwater / Ste-Catherine),20,-73.5844581949641,45.48952522221574
Hochelaga / de l'Assomption,4,-73.53943817317486,45.566883091095185
Bassin olympique (Chemin du Chenal le Moyne),17,-73.52724552154541,45.5169025120042
Parc Wilfrid-Bastien (Lacordaire / des Galets),17,-73.5952181,45.5864002
de Chambly / de Rouen,8,-73.54892447590828,45.54710313981358
BAnQ (Berri),7,-73.56291957199574,45.51601387670667
Parc Ernest-Rouleau (Gouin),8,-73.61631497740746,45.63131269772338
Hôpital Général Juif (de la Côte-Ste-Catherine / Légaré),14,-73.62983867526054,45.49624140543275
CHU Ste-Justine (de la Côte Ste-Catherine / Hudson),10,-73.62283945083618,45.50398168549117
Parc Honoré-Mercier (Notre-Dame / Liébert),13,-73.51035632193089,45.59275253568305
Keller / Cousineau,11,-73.7138856947422,45.52355020292929
Parc d'Antioche (Place d'Antioche / St-Zotique),9,-73.5596626996994,45.59566584124368
Gare Lachine (Sir George Simpson / 48e avenue),2,-73.71091783046722,45.447821314280105
de Gaspé / Marmier,12,-73.60166944563389,45.529668174024685
Grenet / Poirier,6,-73.69875401258469,45.51871924623225
IUSMM (Georges-Villeneuve),12,-73.52969169616699,45.58661042838809
Square Nelligan (des Appalaches / Alexis-Nihon),5,-73.70799824595451,45.51431824920811
Parc MacDonald (Clanranald / Isabella),8,-73.63497912883759,45.48274245886277
La Tour de Montréal (Pierre-de-Coubertin / Bennett),1,-73.55155438184738,45.55970526805903
St-Antoine / 19e avenue,3,-73.68146234754022,45.43993803436114
Messier / St-Joseph,10,-73.57605636119843,45.53946063965585
Square Viger (Berri / Viger),19,-73.55481594800949,45.5121682576952
Dorion / Ontario,15,-73.55821162462234,45.526991277453526
Larivière / de Lorimier,26,-73.55923354625702,45.5291345371163
Viger / Chenneville,9,-73.56089115142822,45.50531166520915
René-Lévesque / Papineau,4,-73.5499919950962,45.52097057660443
Logan / Fullum,7,-73.55117082595825,45.52836601591233
Joseph-Manseau / René-Lévesque,6,-73.57676714658737,45.491686521008035
Logan / d'Iberville,18,-73.54911457747221,45.53061161207863
du Havre / de Rouen,3,-73.55478646466509,45.53456256501449
Square Victoria (Viger / du Square-Victoria),14,-73.56295,45.50206
Métro Peel (de Maisonneuve / Stanley),7,-73.57507,45.50038
St-Antoine / St-François-Xavier,6,-73.55918794870377,45.50459069556304
Métro Place-d'Armes (Viger / St-Urbain),18,-73.55967122894072,45.50631445605528
Métro Laurier (Berri / Laurier),10,-73.58843871625139,45.52809995527671
St-Hubert / de Maisonneuve (nord),3,-73.56049686670303,45.51613214980722
de Rouen / Lespérance,12,-73.5528177022934,45.538859462962286
Calixa-Lavallée / Sherbrooke,1,-73.56545,45.52479
St-Hubert / Duluth,1,-73.57418417930603,45.522425652788634
de Bullion / du Mont-Royal,4,-73.58498811721802,45.52141314643908
de Lanaudière / Laurier,17,-73.58373686671257,45.5333136054992
Laval / Duluth,0,-73.57718793155072,45.51922631024093
Vallières / St-Laurent,7,-73.5836161673069,45.518967223320054
Duluth / de l'Esplanade,1,-73.58105599880219,45.515132275425785
Hogan / Ontario,8,-73.55116009712219,45.535295480380306
la Fontaine / Alexandre-de-Sève,14,-73.55799973011017,45.52330366033427
Ste-Catherine / Union,6,-73.56948494911194,45.50373771539475
Chabot / Mont-Royal,11,-73.57352435588837,45.53413436610844
Gauthier / Papineau,4,-73.56733649969101,45.52966629503036
Messier / du Mont-Royal,11,-73.5710031,45.53711414
Laval / du Mont-Royal,4,-73.58414590358734,45.5223645775784
Jeanne-Mance / Sherbrooke,18,-73.57101917266846,45.50928678961862
Métro Laurier (Berri / St-Joseph),6,-73.58672618865965,45.52723106564012
Pontiac / Gilford,4,-73.58576595783234,45.527009334270645
Christophe-Colomb / St-Joseph,8,-73.58439266681671,45.53036486555959
Cartier / St-Joseph,8,-73.57869029045105,45.53582823686429
Métro Frontenac (Ontario / du Havre),6,-73.55217933654784,45.533705987798946
Roy / St-Denis,7,-73.5727,45.51908
Maguire / Henri-Julien,10,-73.59347056655677,45.527041096087785
Laurier / de Brébeuf,22,-73.58481109142303,45.532513956311426
Laurier / de Bordeaux,2,-73.5791677236557,45.53727946481992
Henri-Julien / du Carmel,0,-73.59502326697111,45.52795093787009
Cartier / Masson,9,-73.58352363109587,45.5380207402854
Parc Ludger-Duvernay (St-André / St-Hubert),7,-73.59242051839828,45.53147464147482
Boucher / St-Denis,4,-73.59183847904205,45.527930077456865
Drolet / Marie-Anne,6,-73.58117669820786,45.522402573414084
St-André / Rachel,1,-73.57596650719643,45.52435318759273
Parc Jeanne-Mance (monument à sir George-Étienne Cartier),20,-73.58475860237377,45.514866433022796
Roy / St-André,3,-73.57036739587784,45.521564270906616
Garnier / St-Joseph,1,-73.58128666877745,45.5330129192707
de l'Esplanade / Fairmount,10,-73.5968267172575,45.521495731487576
Jeanne-Mance / St-Viateur,18,-73.60184043645859,45.523026476635074
du Parc-La Fontaine / Duluth,2,-73.57197672128677,45.52451761488783
Casgrain / St-Viateur,10,-73.59879076480864,45.52751292628879
St-Dominique / Laurier,22,-73.59245739877223,45.52361490311454
de Bullion / St-Joseph,20,-73.59015061847458,45.52404631813311
de Gaspé / Fairmount,7,-73.59285570681095,45.52557815939422
de l'Hôtel-de-Ville / Villeneuve,10,-73.58732756238169,45.52348082760688
Henri-Julien / Laurier,4,-73.59033644199371,45.52574657625029
Marquette / Laurier,23,-73.5822,45.53543
Milton / du Parc,2,-73.57386365532875,45.50936142835129
Waverly / St-Viateur,10,-73.60012650489807,45.5238561444472
de Bordeaux / Gilford,18,-73.5762870311737,45.53611005443118
de Bordeaux / Masson,10,-73.5824453830719,45.53898439552301
Labadie / du Parc,14,-73.59682738780975,45.5198946757576
Fullum / Marie-Anne,8,-73.56803923845291,45.53650541861215
Parthenais / du Mont-Royal,19,-73.57141345739365,45.53640396516409
Clark / St-Viateur,4,-73.59935637563467,45.5251943015533
Duluth  / St-Denis,6,-73.57594907283782,45.52062760607925
Clark / Rachel,0,-73.58212888,45.5173538
Resther / du Mont-Royal,15,-73.58177483081818,45.52562819123256
de Mentana / Marie-Anne,5,-73.57785880565643,45.526026565221414
Hutchison / Prince-Arthur,9,-73.57610732316971,45.50975858607626
du Mont-Royal / Clark,8,-73.58685,45.51941
Bernard / Jeanne-Mance,9,-73.6049484461546,45.52428310031213
Jeanne-Mance / Laurier,23,-73.59497621666378,45.52027633320609
Milton / Durocher,3,-73.57492983341217,45.508140959417744
Clark / Prince-Arthur,0,-73.57301607728004,45.513342512307055
Bercy / Rachel,9,-73.56196403503418,45.53840340979245
de l'Esplanade / du Mont-Royal,3,-73.5883381962776,45.51825290855221
Villeneuve / St-Urbain,0,-73.590559,45.520188
de Rouen / Hogan,5,-73.55421245098114,45.53636263222538
de Gaspé / St-Viateur,10,-73.59738260507582,45.527672646696104
Waverly / Van Horne,3,-73.607723,45.527363
Poupart / Ontario,14,-73.55348825454712,45.531836726498305
Querbes / Laurier,2,-73.59788417816162,45.51748721436461
Berri / Cherrier,1,-73.5692971944809,45.519266156911335
Aylmer / Prince-Arthur,6,-73.57769787311554,45.508566869474386
Bloomfied / Elmwood,14,-73.60320568084717,45.51825588419192
Marie-Anne / St-Hubert,8,-73.5788968205452,45.5246829812827
Durocher / Bernard,14,-73.60668718814848,45.52222528598142
Fullum / de Rouen,15,-73.55876013636589,45.5321322155395
Sherbrooke / Frontenac,9,-73.56081,45.5367
Square St-Louis (du Square St-Louis / Laval),15,-73.5701286792755,45.516090801970655
St-André / Cherrier,6,-73.567695915699,45.52051578783967
Gauthier / Parthenais,5,-73.56377989053726,45.53292625574653
Garnier / St-Grégoire,3,-73.58710169792175,45.5358215436799
de Lanaudière / Marie-Anne,4,-73.57480645179749,45.52932643090091
de Lanaudière / du Mont-Royal,16,-73.57699647545813,45.53022106537559
Boyer / du Mont-Royal,19,-73.57991673052311,45.527432126380575
Chapleau / du Mont-Royal,10,-73.56936,45.53867
Parc de Bullion (de Bullion / Prince-Arthur),1,-73.57213497161865,45.515604257816335
Hutchison / Van Horne,10,-73.6106863617897,45.52497706918177
de Maisonneuve / Mansfield (sud),6,-73.57346534729004,45.502053864057466
Hélène-Baillargeon / St-Denis,4,-73.59527,45.52974
St-Dominique / Bernard,12,-73.60122251338906,45.52793332015246
Hutchison / des Pins,10,-73.57805,45.51069
Durocher / Sherbrooke,0,-73.57228517532349,45.507076248365834
de l'Hôtel-de-Ville / Sherbrooke,1,-73.56835573911665,45.514524730294404
Cartier / Rosemont,3,-73.59104454517365,45.54124722370603
Graham / Brookfield,18,-73.62985610961914,45.52022241072457
Brittany / Ainsley,7,-73.65003436803818,45.52588991809354
Parc Pratt (Dunlop / Van Horne),5,-73.61968517303467,45.514918954061876
de Bellechasse / de St-Vallier,4,-73.60112428665161,45.53341043363302
St-Dominique / St-Zotique,19,-73.6110632121563,45.53226461018495
Louis-Hébert / de Bellechasse,10,-73.58868420124054,45.546661109634606
de Bordeaux / St-Zotique,6,-73.59866470098495,45.546539011777845
Clark / Laurier,8,-73.59346926212311,45.522544455627866
Parc Joyce (Rockland / Lajoie),13,-73.614991,45.515617
des Érables / Bélanger,8,-73.60087350010872,45.54912085535069
Louis-Hébert / St-Zotique,10,-73.59576,45.55001
Parc du Pélican (1ère avenue / Masson),28,-73.57645065,45.5451997
de Gaspé / Beaubien,7,-73.60700100660324,45.531957916826386
Parc Père-Marquette (Chambord / Rosemont),17,-73.59321847558022,45.537087833013324
1ère avenue / Rosemont,12,-73.58486741781235,45.54779995287998
1ère  avenue / St-Zotique,9,-73.59392791986465,45.551937362101
Boyer / Rosemont,7,-73.59553456306458,45.53409866804061
Cartier / Bélanger,10,-73.60281676054001,45.546779039476185
de l'Hôtel-de-Ville / Roy,2,-73.57449866831303,45.51733075399989
de Brébeuf / du Mont-Royal,1,-73.57792854309082,45.52927839879717
Drolet / Beaubien,16,-73.605834,45.533348
5e avenue / Rosemont,11,-73.58308374881744,45.54990048023633
Chabot / Beaubien,4,-73.59564453363419,45.544375546398065
Henri-Julien / de Bellechasse,3,-73.60308364033699,45.5315079142152
27e avenue / Rosemont,11,-73.57139468193054,45.563709940264175
Drolet / St-Zotique,0,-73.60941231250763,45.53488214147823
Fullum / Holt,9,-73.58424894533528,45.54391953154915
3e avenue / Holt,8,-73.58138993382454,45.54800352985515
de St-Vallier / St-Zotique,4,-73.60783427975548,45.536434338630336
Cartier / Dandurand,5,-73.58594566583633,45.53923559055867
Graham / Wicksteed,11,-73.64048302173615,45.51693654712809
Mozart / Waverly,4,-73.61701235175133,45.5315236502754
Chabot / de Bellechasse,3,-73.59214425086974,45.5425697477813
de Lanaudière / Bélanger,6,-73.60565051436424,45.54365085053057
Waverly / St-Zotique,3,-73.61470833420753,45.53050525974957
15e avenue / Masson,15,-73.5713866353035,45.55389801568004
Fabre / St-Zotique,1,-73.60126135876271,45.543653916207866
16e avenue / St-Joseph,12,-73.56577143073082,45.55293611277267
Boyer / Bélanger,12,-73.60897,45.54006
St-Urbain / Beaubien,4,-73.61071854829788,45.52954744851231
Marie-Anne / Papineau,18,-73.5724139213562,45.53176697148175
Jeanne-Mance / Beaubien,6,-73.61229971051216,45.527650097960205
Métro Place-des-Arts (du Président-Kennedy / Jeanne-Mance),12,-73.56881439685822,45.508204615051355
Marquette / Rachel,0,-73.5703244805336,45.52983801723605
Wolfe / Robin,13,-73.5601159930229,45.51958082831579
Bourbonnière / du Mont-Royal,11,-73.56052905321121,45.55358456339093
Graham / Kindersley,17,-73.64694982767105,45.514080696641386
McCulloch / de la Côte Ste-Catherine,0,-73.60060930252075,45.51577505385328
26e avenue / Beaubien,9,-73.5774926841259,45.56485589064712
de Chambly / Rachel,7,-73.55826258659361,45.54991069359101
35e avenue / Beaubien,18,-73.573047,45.570081
de Bordeaux / Sherbrooke,10,-73.56302618980408,45.529914321737415
d'Orléans / Hochelaga,13,-73.54901432991028,45.55061693669672
Jeanne-d'Arc / Ontario,8,-73.54187428951263,45.54959767887176
41e avenue / Rosemont,7,-73.56431499123573,45.57178977666956
Parc de Beauséjour (Gouin / Henri-d'Arles),13,-73.730423,45.526765
12e avenue / St-Zotique,5,-73.589306473732,45.5568667309625
19e avenue / St-Zotique,17,-73.58564794063568,45.56168275734862
de Lisieux / Jean-Talon,14,-73.58168095350266,45.57934937043077
de Gaspé / Dante,1,-73.61217230558395,45.53429782539273
Davaar / de la Côte-Ste-Catherine,3,-73.610871,45.514379
Alton-Goldbloom / Notre-Dame,11,-73.73787671327591,45.54502601340392
Bloomfield / Van Horne,18,-73.61328139901161,45.522745298216094
Place des Festivals ( du Président-Kennedy / de Bleury),10,-73.56932401657104,45.50764392965887
de la Roche / Bélanger,2,-73.60760450363159,45.541669595766315
Campus MIL (Outremont / Thérèse-Lavoie Roux),7,-73.61815363168716,45.52311432992147
Le Corbusier / St-Martin O,3,-73.7319054454565,45.565006717407506
Place du Canada (Peel / des Canadiens-de-Montréal),5,-73.56856763362885,45.49788352593901
Dollard / Bernard,9,-73.61142262816429,45.51678269880724
de la Roche /  de Bellechasse,0,-73.59750330448149,45.53718135927993
11e avenue / du Souvenir,10,-73.70472729206085,45.56933906192115
Ernest-Gendreau / du Mont-Royal,11,-73.56384828686714,45.549713734001415
Paré / Mountain Sights,8,-73.65294188261032,45.49810026070624
Métro Lucien-L'Allier  (Lucien l'Allier / Argyle),1,-73.57112377882004,45.49487159597493
Robin / 15e rue,8,-73.6989176273346,45.559495502858624
Beaudry / Sherbrooke,19,-73.56539458036421,45.52303493310712
8e avenue / Dandurand,9,-73.5772217810154,45.550113551561694
Métro Université de Montréal (Édouard-Montpetit / Louis-Collin),16,-73.6182689666748,45.50363996257211
Parc Henri-Dunant (Léger / Henri-Dunant),12,-73.6752020941276,45.56843961893042
Gauthier / de Lorimier,9,-73.56536373496056,45.53166363055749
Édouard-Montpetit / de Stirling,15,-73.615085,45.50723
du Mans / des Alouettes,9,-73.68471868336201,45.58033485941123
St-Dominique / Napoléon,1,-73.57722043991089,45.51666442219882
Place d'Youville / McGill,2,-73.55615437030792,45.49996470926352
St-Jean-Baptiste / René-Lévesque,10,-73.4999567270279,45.64141535746634
Sabrevois / des Récollets,3,-73.63276362419128,45.583287878804136
Dorion / Rachel,9,-73.56824576854706,45.53163403743962
Parc nature de l'Île-de-la-Visitation (Gouin / de Bruchési),7,-73.65595400333405,45.57833184623925
du Tricentenaire / Prince-Albert,4,-73.49191546440125,45.64954588445726
Fortune / Wellington,10,-73.559038,45.477923
Place du Village (St-Jean-Baptiste / Notre-Dame),4,-73.49011301994324,45.640002860465096
Gary-Carter / St-Laurent,8,-73.62258464097977,45.53613488953656
Métro Parc  (Hutchison / Ogilvy),29,-73.6243924498558,45.53035130173597
Logan / de Champlain,12,-73.55584256350994,45.5231943285584
Bourgeoys / Favard,5,-73.55592101812363,45.47993042065731
Richmond / des Bassins,0,-73.56500297784805,45.48752158511353
Parc Chenier (de l'Aréna / Chenier),11,-73.5432904958725,45.60248649638568
René-Lévesque / Panet,4,-73.55219006538391,45.51862424058306
6e avenue / Villeray,10,-73.60589044634253,45.55873962047568
du Mont-Royal / Augustin-Frigon,11,-73.56780052185059,45.54355786336148
Michelet / Jean-Talon,6,-73.58353972434998,45.57627820285533
des Bassins / du Séminaire,7,-73.56022328138351,45.49047561880464
Parc du Pélican (2e avenue / St-Joseph),4,-73.5717111825943,45.544580831168204
Marie-Anne / de la Roche,2,-73.5762870311737,45.527550507601894
St-Dominique / Rachel,0,-73.581566,45.518593
7e avenue / St-Joseph Rosemont,25,-73.56936693191528,45.54710817336986
Jean Langlois / Fullum,7,-73.54575277422555,45.526499983000186
Bibliothèque de Verdun (Brown / Bannantyne),10,-73.57785612344742,45.44826204820947
LaSalle / Crawford,6,-73.58253550531117,45.43791516514076
McNamara / St-Martin O,11,-73.72351884841918,45.57120355585774
Natatorium (LaSalle / Rolland),4,-73.57542979723802,45.4443505862464
Mairie d'arrondissement LaSalle (Dupras / Jeannette),3,-73.66280972957611,45.429166968311485
Parc Chopin (Dumouchel / Tessier),5,-73.7370860205192,45.570726609302966
Pierre-Péladeau / du Centropolis,14,-73.74370649456978,45.56251175219665
Jeanne-Mance / St-Martin O,7,-73.7480603903532,45.557421482389636
Argyle / de Verdun,14,-73.57191503047943,45.45301583620112
St-Jacques / Vinet,10,-73.57692271471024,45.485328993998365
St-Charles / Thomas-Keefer,17,-73.573775,45.477605
de Chenonceau / Chomedey,12,-73.75448,45.56157
St-Joseph / 8e avenue Lachine,13,-73.67110446095467,45.431518914135125
Lionel-Groulx / George-Vanier,15,-73.57352435588837,45.486346321757786
8e avenue / Notre-Dame Lachine,9,-73.67079868912697,45.43498715540587
Beatty / de Verdun,8,-73.5725748538971,45.450729976972944
Duvernay / Charlevoix,10,-73.57487618923187,45.4820980397155
Mayfield / St-Martin O,6,-73.75822663307189,45.553017541248565
Gloria / Dollard,11,-73.633883446455,45.42971096449354
Bel Air / St-Antoine,11,-73.58367975812143,45.4824297233159
4e avenue / de Verdun,10,-73.57260704040527,45.4568844514464
41e avenue / Victoria,7,-73.70242863893507,45.44053238705948
de l'Église / Bannantyne,6,-73.57587933540344,45.4632535358533
Regina / de Verdun,12,-73.570769,45.467369
Turgeon / Notre-Dame,7,-73.58198940753937,45.478888528072076
Métro Place St-Henri (St-Ferdinand / St-Jacques),0,-73.58732163906097,45.47729315148685
Jacques-Le Ber / de la Pointe Nord,6,-73.5398056358099,45.47259900304475
Métro Lasalle (de Rushbrooke / Caisse),18,-73.56542240828276,45.47069642604657
Métro de l'Église (Ross / de l'Église),8,-73.56592163443565,45.462846046287325
Métro Verdun (Willibrord / de Verdun),7,-73.57209205627441,45.459487694540734
Rose-de-Lima / Workman,17,-73.58099363744259,45.48026417718717
Panet / Ste-Catherine,5,-73.5548883676529,45.51999897796297
Ste-Claire / Pierre-Tétreault,2,-73.52441847324371,45.60191332161639
Parc Félix-Leclerc (François-Boivin / St-Zotique),8,-73.56275528669356,45.5914549914687
Desjardins / Ontario,9,-73.54087114334106,45.55118417872238
Montcalm / Ontario,17,-73.56231406331062,45.52111152278944
Métro Lionel-Groulx (St-Jacques / Atwater),5,-73.57975836854166,45.48295816149219
5e avenue / Bannantyne,12,-73.57614,45.456365
Letourneux / Ste-Catherine,0,-73.53409996037954,45.55078357889704
de Grosbois / Duchesneau,2,-73.5312415660519,45.611230741550536
Métro Joliette  (Joliette / Hochelaga),12,-73.5515570640564,45.54690718297082
Métro Préfontaine (Moreau / Hochelaga),10,-73.5542231798172,45.541374968866094
Peel / Notre-Dame,38,-73.56329441070557,45.49544692088696
Letourneux / Hochelaga,11,-73.54660302400589,45.55465888075087
Ontario / Sicard,5,-73.53744059801102,45.55626186680846
Argyle / Bannantyne,5,-73.5767751932144,45.453318765468914
Ontario / Viau,4,-73.535496,45.5594818
Souligny / Desmarteau,10,-73.51611837744713,45.60444089974122
Parc Lalancette (de Rouen / Valois),10,-73.5471260547638,45.54814504700217
Métro Pie-IX (Pierre-de-Coubertin / Desjardins),25,-73.55137467384337,45.554373399819674
Montcalm / de Maisonneuve,0,-73.55788965214742,45.519131967116216
Métro Beaudry (Beaudry / Ste-Catherine),8,-73.55593845248222,45.51888453178292
des Ormeaux / Notre-Dame,5,-73.51226069033146,45.59926552299961
Ste-Catherine / Dezery,8,-73.54099988937377,45.539385081961676
Métro Assomption (Chauveau / de l'Assomption),5,-73.548081,45.569789
André-Laurendeau / Rachel,13,-73.56256484985352,45.54303187243879
Métro Cadillac (Cadillac / Sherbrooke),6,-73.54647415224463,45.57683333463968
du Parc-Lafontaine / Rachel,8,-73.57424452900887,45.52551168509886
St-Germain / Hochelaga,11,-73.5534825682771,45.543652466151
Métro Langelier (Langelier / Sherbrooke),11,-73.54247644543648,45.58284663189181
Pierre-de-Coubertin / Langelier,8,-73.5353136062622,45.580314546424674
Atateken / du Square Amherst,15,-73.56390595436096,45.52063377251984
St-Grégoire / Christophe-Colomb,13,-73.59011113643646,45.53259744983328
de Léry / Sherbrooke,11,-73.55826258659361,45.54099971663243
Du Quesne / de Marseille,16,-73.54123055934906,45.575812361972055
St-André / Ontario,7,-73.56353,45.51889
Valois / Ste-Catherine,1,-73.53725016117096,45.54522973039872
Alexandre-DeSève / Ste-Catherine,2,-73.55386108160019,45.52123044585842
Bibliothèque et Complexe aquatique Rosemont (8e avenue / Rosemont),13,-73.58207792043686,45.55151193681962
Nicolet / Sherbrooke,12,-73.55464696884155,45.54969542033443
Alexandre-DeSève  / Ontario,3,-73.56053441762924,45.52435882510794
Dézéry / Ontario,4,-73.54702949523926,45.54095791741757
Ste-Catherine / St-Clément,6,-73.53024959564209,45.55671730558936
de l'Église / de Verdun,8,-73.57156895217486,45.46300108733155
St-Jacques / St-Laurent,7,-73.55648696422577,45.50644464920572
Liébert / Hochelaga,14,-73.52352797985077,45.59587457490178
du Champ-de-Mars / Gosford,7,-73.55400860309601,45.50965520472071
St-Jacques / McGill,1,-73.56014415621758,45.50144108135568
de l'Hotel-de-Ville / Rachel,5,-73.58010649681091,45.51989655507833
Gagne / LaSalle,11,-73.601194024086,45.422451407155854
Notre-Dame / McGill,7,-73.5601931065321,45.50002580878596
Métro Honoré-Beaugrand (Sherbrooke / Honoré-Beaugrand),13,-73.53517949581145,45.5967964774917
des Récollets / McGill,8,-73.55900555849075,45.5008764952487
Métro Radisson (Sherbrooke / des Groseilliers),11,-73.53965610265732,45.58917500418707
City Councillors / du President-Kennedy,1,-73.57139065861702,45.50625103256782
William / St-Henri,3,-73.55725407600403,45.49891911390352
Bélanger / St-Denis,14,-73.61199,45.53696
Metcalfe / du Square-Dorchester,2,-73.57110500335693,45.50022226680107
Marché Jean-Talon (Henri-Julien / Jean-Talon),15,-73.6148879583925,45.53678525128436
St-Nicolas / Place d'Youville,5,-73.55515256524086,45.501966859101564
Molson / Beaubien,11,-73.59115451574326,45.54968589617967
d'Orléans / Masson,11,-73.569847,45.557192
Union / Ste-Catherine,2,-73.56970220804214,45.504027213143104
Louis-Hébert / Beaubien,2,-73.592010140419,45.5481863712796
du President-Kennedy / Union,1,-73.57187882065773,45.505102242483595
de Grenoble / de Cassis,12,-73.70492711663245,45.57889719514108
Darling / Sherbrooke,20,-73.55673909187317,45.54545514686953
5e avenue / Masson,13,-73.57513636350632,45.54752382909683
10e avenue / Masson,12,-73.57373356819151,45.55037651450808
St-Alexandre / Ste-Catherine,0,-73.5674786567688,45.50527354034462
Métro Bonaventure (de la Gauchetière / de la Cathédrale),6,-73.56725603342056,45.49831217703312
Grand Boulevard / Sherbrooke,19,-73.62355081379064,45.46670033299904
Langelier / Marie-Victorin,9,-73.6118745803833,45.61451982045293
Benny / Sherbrooke,11,-73.62659722566605,45.4648769981855
Park Row O / Sherbrooke,11,-73.63407254219055,45.46072936353252
Lucien L'Allier / St-Jacques,17,-73.56848180294037,45.493514106710734
Aylmer / Ste-Catherine,3,-73.56894850730896,45.50434678685089
Grand Boulevard / de Terrebonne,15,-73.63165721297264,45.470535000953966
des Jockeys / Décarie,6,-73.65449488162994,45.49404432109336
Lacombe / Victoria,12,-73.62913727760315,45.49048314001669
Parc Georges St-Pierre (Oxford / Upper Lachine),7,-73.60943913459778,45.46887995929811
Métro Côte-Ste-Catherine (Beaucourt / de la Côte-Ste-Catherine),13,-73.633649,45.491513
Marcil / Sherbrooke,1,-73.613924,45.471743
Boyer / Beaubien,13,-73.602026,45.537041
Grey / Sherbrooke,13,-73.60617488622665,45.47629426230192
Boyer / St-Zotique,4,-73.60556,45.53848
Workman / Vinet,7,-73.5750612616539,45.483788863965174
Parc Howard (de l'Épée / de Liège),13,-73.64188581705093,45.53318929909303
Wilderton  / Van Horne,15,-73.6247518658638,45.51014162409143
de Monkland / Girouard,18,-73.6214379966259,45.47710675189806
Métro Villa-Maria (de Monkland / Décarie),23,-73.61959934234618,45.4789683985657
de la Côte St-Antoine / Royal,12,-73.6198702454567,45.468926984877434
Métro Vendôme (de Marlowe / de Maisonneuve),31,-73.60473453998564,45.47393028235147
Marquette / des Carrières,22,-73.58870029449461,45.53879934493943
d'Outremont / Ogilvy,18,-73.62672328948975,45.52687028194893
Parc Loyola (Somerled / Doherty),5,-73.64477455615997,45.45976107571447
Faillon / St-Denis,5,-73.62026989459991,45.539890852781404
de Kent / de la Côte-des-Neiges,9,-73.63305062055588,45.50144933057703
Métro Acadie (de l'Acadie / Beaumont),11,-73.62344294786453,45.52357479400008
des Récollets / Martial,9,-73.64061713218689,45.59089190991344
Earnscliffe / Queen-Mary,9,-73.63037377595901,45.481845071377414
Leman / de Chateaubriand,13,-73.63105237483978,45.54721107501036
Parc des Hirondelles (Fleury / André-Jobin),15,-73.646759390831,45.5762948651025
de Melrose / Sherbrooke,18,-73.61735232174397,45.46991202213883
Métro de Castelnau (de Castelnau / St-Laurent),6,-73.61962348222733,45.53570881624427
Métro Snowdon (de Westbury / Queen-Mary),5,-73.62816195935011,45.48542414888848
Parc Sauvé (Balzac / de Bayonne),9,-73.63610029220581,45.59836857189897
de St-Firmin / Fleury,9,-73.6517858505249,45.570624722078364
Jacques-Casault / Christophe-Colomb,13,-73.630103,45.552123
Marquette / Fleury,12,-73.65378744900227,45.56735205736566
Parc Joseph-Robin (18e avenue / Everett),8,-73.59580412507057,45.56481129244175
Everett / Garnier,7,-73.61220851540565,45.54758153109644
8e avenue / Everett,0,-73.60154539346695,45.55776151418004
Francis / Fleury,16,-73.6555677652359,45.56387237463668
Hamel / Sauvé,17,-73.6505614221096,45.56076192837154
Métro Jarry (Lajeunesse / Jarry),15,-73.62777203321457,45.54355974189168
Boyer / Everett,11,-73.61607524188003,45.54310243053054
Louis-Hébert / Bélanger,7,-73.59916493296623,45.55158518908433
Chambord / Fleury,12,-73.65832507610321,45.55982811984724
de Bordeaux / Jean-Talon,0,-73.60556602478027,45.54975479298636
Louis-Hémon / Jean-Talon,15,-73.60347837231528,45.5517742671765
Rousselot / Jarry,6,-73.62088680267334,45.55081979211847
Péloquin / Fleury,7,-73.6599015713,45.55702223161539
de Normanville / Villeray,9,-73.61815631389618,45.547172039327485
de la Roche / Everett,4,-73.614841,45.544867
du Rosaire / St-Hubert,11,-73.6215104162693,45.54481928225348
Métro Crémazie (Crémazie / Lajeunesse),12,-73.63842844963074,45.54640752148169
2e avenue / Jean-Rivard,12,-73.61656039953232,45.562509038048915
de Chateaubriand / Jarry,13,-73.62665355205536,45.545841561840085
Lajeunesse / Villeray,2,-73.62268656492233,45.54218173507584
Drolet / Jarry,1,-73.62994194030762,45.54195463236575
Lajeunesse / de Liège,11,-73.63490000367165,45.545580534390176
Basile-Routhier / Chabanel,10,-73.64765658974648,45.549868431421636
Émile-Journault / de Chateaubriand,8,-73.64063255488873,45.54983321292286
Ropery / Augustin-Cantin,18,-73.56863468885422,45.48097552629275
Ann / Wellington,14,-73.55676054954529,45.49449368327543
Richardson / Montmorency,13,-73.56032252311707,45.484966061164755
Dubois / Eadie,12,-73.59051011502743,45.45760820718457
Parc Ferland (Belleherbe / Albanel),5,-73.59529852867126,45.59573798024675
Crescent / René-Lévesque,0,-73.57334746981905,45.49600732302391
Parc Henri-Julien (Legendre / Henri-Julien),9,-73.6465984582901,45.5460355901214
6e avenue / Bélanger,5,-73.59615683555603,45.55456382820465
de la Côte St-Antoine / Argyle,11,-73.59572768211365,45.48624101696415
Victoria Hall,9,-73.6003303527832,45.48129146961133
Berri / Rachel,7,-73.57724860310555,45.52275023118295
Augustin-Cantin / Shearer,9,-73.56363236904144,45.48390169543355
Mackay / de Maisonneuve,3,-73.57913017272949,45.49682986230046
St-Mathieu / Sherbrooke,2,-73.58259558677672,45.495789104811756
Guy / Sainte-Catherine,18,-73.57777043248461,45.49497512853125
Notre-Dame-de-Grâce / Westmount,9,-73.61122308304402,45.48046706437983
des Pins / St-Laurent,2,-73.5750961303711,45.51522812881499
Hamilton / Jolicoeur,10,-73.59764268636354,45.45670282849069
Monk / Biencourt,12,-73.59602272510529,45.458663192410306
de Châteauguay / Ropery,19,-73.56629446148872,45.47930107352825
Ryde / Charlevoix,18,-73.5646007,45.4757434
Cypress / Peel,2,-73.57175691987322,45.499330334344556
Parc St-Henri (Laporte / Guay),9,-73.58590811491013,45.48013378575666
Peel / Ottawa,22,-73.55998456478119,45.49419955357054
Shearer / Centre,5,-73.56206325352105,45.4828250990486
Métro Monk (Allard / Beaulieu),3,-73.5939010977745,45.451030919298056
Mackay / Ste-Catherine,1,-73.57696294784546,45.49582294706495
St-Jacques / Guy,9,-73.57010722160338,45.491366875439965
Métro Angrignon (Lamont /  des Trinitaires),6,-73.60229507088661,45.44705915105563
Victoria / de Maisonneuve,15,-73.60016942024231,45.47742856483265
Stanley / René-Lévesque,4,-73.57077571808077,45.49790394592446
Plessis / Ontario,18,-73.56099039316177,45.523594936648244
Canning / Notre-Dame,5,-73.5702332854271,45.486318644010225
St-Antoine / Jean-Paul Riopelle,14,-73.56064036488532,45.502939709023714
Métro Beaubien (de Chateaubriand / Beaubien),5,-73.60363483428955,45.5353599615622
de l'Hôtel-de-Ville / Ste-Catherine,4,-73.56213569641113,45.51166045593874
Parc St-Paul (Le Caron / Marc-Sauvalle),13,-73.58412176370621,45.461741021347436
de Castelnau / Lajeunesse,2,-73.61650675535202,45.54043190217008
de la Côte St-Paul / St-Ambroise,14,-73.59391784324544,45.467665653865964
Fullum / Ste-Catherine,17,-73.54801654815674,45.52711644190572
Bourget / St-Jacques,13,-73.58351558446884,45.48067368593179
Métro Édouard-Montpetit (du Mont-Royal / Vincent-d'Indy),3,-73.6114051938057,45.510200304274754
St-Laurent / Pl. du Marché,2,-73.56241598725319,45.50928960913111
Charles-Daoust / 75e avenue,13,-73.74095320701599,45.54250587659489
Henri-Julien / de Castelnau,15,-73.6182153224945,45.53789110878484
Ste-Émilie / Sir-Georges-Etienne-Cartier,14,-73.5852724313736,45.472781067977614
de Mentana / Laurier,6,-73.58780443668365,45.5305193519952
Stinson / Montpellier,6,-73.6662483215332,45.51962176248447
Métro Sauvé (Berri / Sauvé),13,-73.65636706352234,45.550692068419764
Ste-Catherine / Towers,0,-73.58096480369566,45.49228068089086
St-Cyril / Wiseman,22,-73.61573964357376,45.52085479492202
McLynn / Plamondon,12,-73.6470128595829,45.48911308766352
Parc Champdoré (Champdoré / de Lille),9,-73.63642623429769,45.5692509593831
Ste-Croix / Tassé,4,-73.68516325950623,45.51953948301331
29e avenue / St-Zotique,12,-73.57968807220459,45.56776565172907
Beaubien / 8e avenue,8,-73.58784198760986,45.553456845975276
Harvard / de Monkland,7,-73.62403571605682,45.474565185029945
Hillside / Ste-Catherine,1,-73.59084337949753,45.48282602624293
Guizot / St-Laurent,15,-73.63450437784195,45.53968044327973
De Callières / d'Auvergne,12,-73.6690217256546,45.593421978698636
Melville / de Maisonneuve,1,-73.59537899494171,45.48184019359366
Union / René-Lévesque,1,-73.56658279895781,45.50235036136798
Jeanne-Mance / René-Lévesque,1,-73.5642009973526,45.5063713381299
Bloomfield / Ball,15,-73.6329460144043,45.52995941738481
Laforest / Dudemaine,15,-73.6872661113739,45.539806548176045
Sanguinet / de Maisonneuve,8,-73.56259435415267,45.51340553558378
St-Denis / Ste-Catherine,2,-73.5603104531765,45.51372291221464
Ste-Catherine / Sanguinet,7,-73.56124520301817,45.512936177874096
Notre-Dame-de-Grâce / Décarie,12,-73.61527817789465,45.477384955188235
St-Urbain / de la Gauchetière,3,-73.56139540672302,45.50707812811467
de Maisonneuve / Greene,12,-73.58929306,45.48697062
Drummond / Ste-Catherine,7,-73.57422709465027,45.49863930330429
Mansfield / Cathcart,3,-73.57050284743309,45.500989292488576
Ste-Catherine / Bishop,1,-73.5762146115303,45.49658063218649
Chomedey / de Maisonneuve,16,-73.58394473791122,45.491750449903954
Gilford / des Érables,4,-73.57534691691399,45.53728040418993
Fullum / Terrasse Mercure,11,-73.56593906879425,45.535541603465234
University / Prince-Arthur,11,-73.57864737510681,45.5074794530521
Gare Bois-de-Boulogne,11,-73.67716491222382,45.53972553109637
de Gaspé / Jarry,5,-73.63040059804916,45.540780049797995
Legrand / Cartier,3,-73.70748996734619,45.55233742797057
St-Dominique / Jean-Talon,15,-73.6175217570053,45.53520398241678
Chabot / Villeray,9,-73.61300647258759,45.552289376429215
Ouimet / Goineau,21,-73.68799567222595,45.57504823374693
Guizot / St-Denis,17,-73.63246187567711,45.543423548290185
Egan / Laurendeau,12,-73.58918591405198,45.45290792768395
Métro Plamondon (de Kent / Victoria),8,-73.63871866467889,45.494686752797904
St-Dominique / St-Viateur,14,-73.5982757806778,45.52655700191558
St-Charles / Grant,17,-73.508752,45.539824
Marquette / du Mont-Royal,9,-73.57543140649796,45.53221791147474
St-André / Ste-Catherine,4,-73.55801045894623,45.516297540849614
Métro du Collège (Cartier / Décarie),5,-73.6729645729065,45.50843904979172
Métro Côte-des-Neiges (Jean-Brillant / de la Côte-des-Neiges),13,-73.6222583055769,45.495537539518104
Monsabré / Boileau,14,-73.54152023792267,45.571796348222385
Notre-Dame / Guy,19,-73.56737405061722,45.48984195308291
Chabanel / Tolhurst,13,-73.65347027778625,45.540105018786974
Pratt / Bates,9,-73.62631559371948,45.51694782364431
Métro Georges-Vanier (St-Antoine / Canning),15,-73.57656,45.4891
Fullum / Ontario,14,-73.5548669,45.5303174
Louisbourg / O'Brien,16,-73.70393217686795,45.53039449604383
Métro Cartier,7,-73.68125259876251,45.56007440937141
Métro de la Savane (Décarie / de Sorel),6,-73.66171056035454,45.500251758943925
Alfred Laliberté / de Poutrincourt,11,-73.6945965886116,45.53308032414161
Clark / Fleury,11,-73.66522908210754,45.54758205939525
Métro Montmorency,11,-73.71942043304443,45.55814299291968
Ste-Catherine / St-Mathieu,3,-73.57917845249176,45.49384690142783
Tolhurst / Fleury,11,-73.66735741496086,45.54407915308118
St-Ambroise / Louis-Cyr,9,-73.58094334602356,45.47519326260791
Terminus Le Carrefour (Terry-Fox / Le Carrefour),8,-73.74687284231186,45.56842034638607
Métro Rosemont (de St-Vallier / Rosemont),2,-73.59804779291153,45.531921043052655
Mexico / Valois,15,-73.71925413608551,45.58470514858118
de Hampton / de Monkland,11,-73.6270022392273,45.47117930747152
2e avenue / Centrale,14,-73.59685689210892,45.43289463113104
Laird / Glencoe,4,-73.64230799681536,45.50619158460727
Parc Beaubien Outremont (Stuart / St-Viateur),5,-73.60827505588531,45.515969694922276
Parc St-Claude (8e rue / 7e avenue),10,-73.69167619946893,45.56223427759079
du Souvenir / Chomedey,3,-73.74444007873535,45.55188644388879
Maguire / St-Laurent,9,-73.5958108305931,45.524628485592636
Maisonneuve / Wood,9,-73.58807051185067,45.48819793805841
de la Côte-Ste-Catherine / Decelles,10,-73.62563699483871,45.50094101588506
Métro Jean-Talon (Berri / Jean-Talon),2,-73.6142510175705,45.53900036432657
Métro Sherbrooke (de Rigaud / Berri),2,-73.56800436973572,45.51814312154928
University / des Pins,6,-73.58002064942411,45.50817464963893
Christophe Colomb / Gilford,0,-73.58288526535034,45.52970275925261
Gilford / St-Denis,12,-73.585617095232,45.52500713558964
Notre-Dame / de la Montagne,3,-73.56481790542603,45.49302901258371
Milton / University,6,-73.57640504837036,45.50651983995355
Metcalfe / de Maisonneuve,3,-73.57434511184692,45.501804363327565
Marché Atwater,29,-73.57759863138199,45.48020822800015
Hutchison / Beaubien,8,-73.61296892166138,45.52605851018324
Drolet / Gounod,13,-73.62637460231781,45.54095134225734
de Gaspé / de Liège,20,-73.63634169101715,45.54248521237199
de l'Hotel-de-Ville / Ontario,0,-73.56666326522826,45.51374520222444
de Gaspé / Villeray,7,-73.62390697002411,45.53888723230076
Drummond / de Maisonneuve,2,-73.57602953910826,45.499515390738885
Parc Jean-Drapeau (Chemin Macdonald),14,-73.53200376033783,45.51252079509179
Hôpital Maisonneuve-Rosemont (Rosemont / Chatelain),17,-73.561562,45.575707
Bélanger / St-Laurent,4,-73.61472845077515,45.53313989048685
Marmier / St-Denis,19,-73.59845817089081,45.530757980151904
Robert-Bourassa / St-Maurice,1,-73.56055587530136,45.49837045828952
Métro Charlevoix (Centre / Charlevoix),16,-73.56931865215302,45.4785381897129
Ste-Famille / des Pins,1,-73.57640504837036,45.5125667269925
Parc Baldwin (Fullum / Sherbrooke),22,-73.56265068054199,45.53407048533949
Cartier / Marie-Anne,11,-73.57200437053734,45.53272890731339
Aylwin / Ontario,3,-73.54516267776489,45.544275457326385
Queen / Wellington,0,-73.55534970760345,45.49760527699099
Stationnement incitatif de Montarville (de Montarville),3,-73.44999354332685,45.6011635681891
Quai Yvon-Julien (Marie-Victorin / de Montarville),8,-73.45692034810781,45.606718042243784
Stationnement incitatif de Mortagne (Ampère),4,-73.44312071800232,45.57251733677832
St-Joseph Lachine / 21e avenue,3,-73.68354320526123,45.43352120253739
du Parc / François-Foucault,17,-73.66273999214172,45.605785392139126
90e Avenue / Boulevard Lévesque O,10,-73.74735295772552,45.53121456506295
Métro St-Laurent ( de Maisonneuve / St-Laurent),8,-73.56512099504471,45.51074821798916
de Maisonneuve / Mansfield (nord),4,-73.57333794236183,45.502386079583346
Pierre-de-Coubertin / Aird,5,-73.54830354452133,45.55903106539297
Porte de Québec / St-André,0,-73.55057805776596,45.51329411414168
Laurier / St-Denis,10,-73.58947947621346,45.52714838624861
Frontenac / Ste-Catherine,9,-73.54559183120728,45.53006276144042
Garnier / Villeray,8,-73.61605471489383,45.54948004519436
Belmont / Robert-Bourassa,3,-73.56588006019592,45.50138408104859
Louis-Hémon / Rosemont,7,-73.58810484409332,45.544500877623655
Wellington / Gordon,1,-73.56704950332642,45.46109386344247
Parc des Vétérans (des Vétérans / Broadway),6,-73.50819479674101,45.63147192165401
Parc de l'Hôtel-de-Ville (Ste-Julie / Laurendeau),11,-73.4948467835784,45.630686043767284
Wellington / 3e avenue,8,-73.56757521629333,45.45734622161475
Wellington / Hickson,15,-73.56674909591675,45.46493155172772
Parc de Montréal-Est (Notre-Dame / David),4,-73.50989364087582,45.61316323215739
Centre récréatif Édouard-Rivet (Notre-Dame / Lesage),7,-73.49952153861523,45.62846158049899
Mansfield / Ste-Catherine,3,-73.57165485620499,45.50140664031126
Lanaudière / Jean-Talon,4,-73.61032962799072,45.545350334193245
St-Dominique / de Bellechasse,17,-73.60488876700401,45.52952466565309
du Canal / McLaughlin,7,-73.6694884300232,45.42969214118378
Plessis / Logan,10,-73.55725058932876,45.5218942750191
de Maisonneuve / Mansfield SE,3,-73.5733064264059,45.50229349416256
Parc J.-Arthur-Champagne (de Chambly / du Mont-Royal),10,-73.561916,45.551584
Bloomfield / Bernard,19,-73.60775470733641,45.520338193708305
de Laprairie / Centre,14,-73.56577813625336,45.48059248038378
Clark / de l'Arcade,11,-73.60398352146149,45.527371996141
Parc Lacharité (Latour / Forget),5,-73.62338548639853,45.41773748108526
Sherbrooke / Jeanne-d'Arc,15,-73.55496388156098,45.55398156058887
de la Vérendrye / 75e avenue,9,-73.62966051438889,45.42070552680549
Milton / Clark,0,-73.5709663525995,45.512167777991905
Jogues / Allard,4,-73.60030621290207,45.450020323797766
Stanley / Sherbrooke,1,-73.57720971107483,45.50104945092413
Metcalfe / St-Catherine,4,-73.57245951890945,45.50083231626815
St-Zotique / Clark,7,-73.61270070075989,45.53143760098197
Prince-Arthur / du Parc,13,-73.5755842924118,45.51044465753362
Prince-Arthur / St-Urbain,0,-73.5737282037735,45.51262123436571
Métro Mont-Royal (Berri / Mont-Royal),15,-73.58220934867859,45.52501371261418
de Côme / Jean-Talon,10,-73.57783721439773,45.58830296569168
Boyer / St-Joseph,5,-73.5842552036047,45.52937645940547
Robert-Bourassa / René-Lévesque,1,-73.56825381517409,45.502182909901194
Aylmer / Sherbrooke,20,-73.57282698154448,45.50629456823703
du Parc-La Fontaine / Roy,0,-73.56916093829568,45.5232203879173
Coloniale / Duluth,1,-73.57842743396758,45.51786873150825
Casgrain / Maguire,14,-73.5957657695144,45.52621764749851
Robin / St-André,1,-73.56161856654579,45.51820643310249
Métro Fabre (Garnier / Jean-Talon),14,-73.60858295134676,45.54604633902673
Métro St-Laurent dépôt 2 (de Maisonneuve / St-Laurent),1,-73.56535434722899,45.51070968563815
St-Hubert / Laurier,6,-73.58786880970001,45.52893724049854
Bennett / Ste-Catherine,3,-73.53263273835182,45.55315915057821
Gilford / Papineau,8,-73.57802510261536,45.534609711904416
de Mortagne / de Montarville,8,-73.43605846166611,45.59147977279279
du Fort Saint-Louis / de la Perrière,15,-73.45154017210007,45.613330089384625
de Mortagne / Jean-Neveu,4,-73.44949901103973,45.56923752103412
Métro Papineau (Dorion / De Maisonneuve),8,-73.55236601831166,45.5238445756922
Lamarre / Lavallée,12,-73.48599582910538,45.53374770433337
Parc Laurier (Laurier / Dubuc),15,-73.47374618053436,45.533610547532355
Dollard / Van Horne,17,-73.6161071062088,45.51887607468706
Villeneuve / St-Laurent,0,-73.58956933021545,45.521269382097486
Ste-Catherine / St-Denis,4,-73.56045931577681,45.51380534702895
Villeneuve / du Parc,1,-73.59256982808802,45.51801230878908
Émile-Duployé / Sherbrooke,6,-73.56588721280787,45.5278406266837
Parc Olympique (Pie-IX / Sherbrooke),7,-73.55370283126831,45.554824549823
Crescent / de Maisonneuve N/E,7,-73.57759594917297,45.49812041247333
St-Dominique / du Mont-Royal,3,-73.58582027256489,45.52055948154798
Hôpital Pierre-Boucher (Jacques-Cartier / Bourdon),15,-73.4576690196991,45.536532102952236
de la Montagne / Sherbrooke,8,-73.57938900589943,45.500015468871446
Chambord / St-Joseph,15,-73.58226299285889,45.53206384071709
Parc Plage,2,-73.52748987080304,45.50263299287665
Plymouth / Chem.Eden,7,-73.66047888994217,45.506488823782234
Parc Maisonneuve (Viau / Sherbrooke),11,-73.5555911064148,45.56493679334249
Chambord / Beaubien,2,-73.59936207532883,45.539900246044354
Duke / Nazareth,3,-73.55461344122887,45.49572236030835
Wolfe / de la Gauchetière,1,-73.55291748050148,45.51625372636654
McGill / Wellington,6,-73.55489909648894,45.499447710650415
Masson / Molson,14,-73.57697686180472,45.54434593245247
Parc Molson (d'Iberville / Beaubien),1,-73.59198164194822,45.54902230455398
de Bellechasse / de Lanaudière,7,-73.59521873295307,45.539306918976
Ellendale / de la Côte-des-Neiges,12,-73.62923383712769,45.49966955063677
Lincoln / du Fort,13,-73.58389592183812,45.4930266623113
St-Sylvestre / St-Charles S/E,3,-73.51245582103729,45.53638893500808
Palm / St-Rémi,8,-73.5898107290268,45.47031892425747
Jean-Talon / de l'Épée,14,-73.62406253814697,45.52748661935468
Gare LaSalle (Highlands),4,-73.65713578464238,45.425612687757926
Métro St-Michel (Shaughnessy / St-Michel),2,-73.59948813915253,45.55907613768983
St-Hubert / René-Levesque,4,-73.55648696422577,45.514369201445305
Durocher / Beaumont,10,-73.61919969320297,45.52799772330074
